[
  {
    "id": "1",
    "name": "Pulling Point",
    "lat": -45.79544843569257,
    "lng": 170.65530034517968
  },
  {
    "id": "2",
    "name": "Pulling Point 2",
    "lat": -45.79544843569257,
    "lng": 170.65530034517968
  },
  {
    "id": "3",
    "name": "Back Beach, Port Chalmers",
    "lat": -45.81803643749724,
    "lng": 170.62665337697052
  },
  {
    "id": "4",
    "name": "Mussel Bay",
    "lat": -45.82029214043579,
    "lng": 170.61540292162857
  },
  {
    "id": "5",
    "name": "Ravensbourne Boat Club",
    "lat": -45.86778638091901,
    "lng": 170.54990175760292
  },
  {
    "id": "6",
    "name": "Leith River Mouth",
    "lat": -45.87130850850974,
    "lng": 170.52813693165888
  },
  {
    "id": "7",
    "name": "MacAndrew Bay Marina",
    "lat": -45.869285745411766,
    "lng": 170.59550323769713
  },
  {
    "id": "8",
    "name": "MacAndrew Bay Stormwater Outfall",
    "lat": -45.868971536600014,
    "lng": 170.5973424912239
  },
  {
    "id": "9",
    "name": "Sommerville Creek",
    "lat": -45.89252008601696,
    "lng": 170.52803456994542
  },
  {
    "id": "10",
    "name": "Anderson's Bay Outlet",
    "lat": -45.89197805587839,
    "lng": 170.52041774896438
  }
]
